City,Country,Lat,Lng,Temp,Date,Humidity,Max Temp,Wind Speed,Cloudiness
Port Elizabeth,ZA,-33.92,25.57,64.4,1587245863,93,64.4,2.24,0
Ulaangom,MN,49.98,92.07,33.35,1587246248,50,33.35,1.81,0
Udachny,RU,66.42,112.4,8.6,1587246248,50,8.6,4.47,0
Lebu,CL,-37.62,-73.65,61.65,1587246056,72,61.65,5.7,34
Saint Paul Harbor,US,57.79,-152.41,46.4,1587246057,75,46.4,12.75,1
Lavrentiya,RU,65.58,-171.0,18.59,1587246249,95,18.59,9.57,100
Butaritari,KI,3.07,172.79,83.21,1587246250,77,83.21,15.82,76
Rikitea,PF,-23.12,-134.97,77.09,1587246250,73,77.09,7.54,18
Margate,GB,51.38,1.39,47.75,1587246250,92,48.0,12.28,15
Dingle,PH,11.0,122.67,78.66,1587246251,82,78.66,9.37,2
Port Alfred,ZA,-33.59,26.89,63.0,1587246251,94,63.0,4.0,0
Rutland,US,43.62,-73.02,43.38,1587246252,41,44.01,9.17,90
Līsakovsk,KZ,52.54,62.49,46.85,1587246252,77,46.85,11.1,82
Mataura,NZ,-46.19,168.86,43.3,1587246252,89,43.3,4.52,100
Vestmanna,FO,62.16,-7.17,42.8,1587246252,81,42.8,11.41,0
Zhangjiakou,CN,40.81,114.88,48.9,1587246253,51,48.9,3.89,100
Busselton,AU,-33.65,115.33,60.66,1587246121,72,63.0,24.92,100
Castro,BR,-24.79,-50.01,61.27,1587246253,58,61.27,3.71,43
Río Gallegos,AR,-51.62,-69.22,59.0,1587246253,30,59.0,21.92,87
Mossamedes,AO,-15.2,12.15,74.34,1587246254,71,74.34,4.61,78
Diego de Almagro,CL,-26.37,-70.05,77.32,1587246254,21,77.32,8.37,0
Ushuaia,AR,-54.8,-68.3,50.0,1587246034,69,50.0,8.05,75
Hithadhoo,MV,-0.6,73.08,83.77,1587246027,75,83.77,11.65,99
Saint-Philippe,RE,-21.36,55.77,69.33,1587246063,78,75.2,9.17,10
Punta Arenas,CL,-53.15,-70.92,53.38,1587246255,46,53.6,19.46,40
Faya,SA,18.39,42.45,63.5,1587246085,72,64.4,10.29,88
Ancud,CL,-41.87,-73.82,55.4,1587246256,93,55.4,12.75,90
Puerto Ayora,EC,-0.74,-90.35,83.5,1587246256,70,86.0,11.41,75
Airai,TL,-8.93,125.41,59.76,1587246257,56,59.76,2.86,44
Kasempa,ZM,-13.46,25.83,62.89,1587246257,65,62.89,5.64,43
Iqaluit,CA,63.75,-68.51,6.39,1587246257,60,6.8,4.7,20
Kalabo,ZM,-14.97,22.68,69.91,1587246258,53,69.91,4.88,93
Poum,NC,-20.23,164.02,78.22,1587246035,77,78.22,14.2,74
Loa Janan,ID,-0.58,117.09,75.88,1587246259,94,75.88,1.57,100
Dalby,AU,-27.18,151.27,57.81,1587246259,93,59.0,4.7,40
Neyshabur,IR,36.21,58.8,55.17,1587246259,38,55.17,5.35,57
Hermanus,ZA,-34.42,19.23,64.0,1587246251,54,64.0,1.01,69
Chara,RU,56.91,118.26,10.63,1587246261,76,10.63,6.8,100
Atuona,PF,-9.8,-139.03,82.47,1587246262,79,82.47,18.37,89
Itararé,BR,-24.11,-49.33,66.0,1587246263,91,66.0,4.0,32
Tiksi,RU,71.69,128.87,3.87,1587246263,85,3.87,4.38,55
Tuktoyaktuk,CA,69.45,-133.04,8.6,1587245985,84,8.6,6.93,75
Thompson,CA,55.74,-97.86,15.8,1587246264,47,15.8,16.11,20
Duvan,RU,55.7,57.9,32.99,1587246264,81,32.99,6.82,27
Tasiilaq,GL,65.61,-37.64,33.8,1587246264,80,33.8,14.99,100
Kutoarjo,ID,-7.72,109.91,78.64,1587246264,79,78.64,4.23,97
Bluff,NZ,-46.6,168.33,45.9,1587246142,85,45.9,7.43,100
Vaini,TO,-21.2,-175.2,78.8,1587246265,78,78.8,11.41,75
Mar del Plata,AR,-38.0,-57.56,71.82,1587246088,56,72.0,6.93,1
Sorong,ID,-0.88,131.25,76.8,1587246266,87,76.8,0.22,52
Hirara,JP,24.8,125.28,74.17,1587246142,87,74.17,16.73,100
Kavaratti,IN,10.57,72.64,84.13,1587246266,71,84.13,4.56,1
Alofi,NU,-19.06,-169.92,80.6,1587246266,88,80.6,9.17,32
Hobart,AU,-42.88,147.33,44.46,1587246018,87,46.0,8.05,75
Karabulak,RU,43.3,44.9,40.8,1587246266,86,44.6,4.47,100
Parral,MX,26.93,-105.67,83.7,1587246267,8,83.7,27.58,65
Albany,US,42.6,-73.97,46.0,1587246267,67,46.0,1.99,93
Grand Gaube,MU,-20.01,57.66,77.65,1587246267,88,78.01,14.99,40
Berlevåg,NO,70.86,29.09,35.73,1587246267,83,35.73,15.43,95
Baoning,CN,25.34,110.03,68.0,1587246267,100,68.0,2.24,75
Havre-St-Pierre,CA,50.23,-63.6,35.6,1587246268,55,35.6,9.17,1
Hong Kong,HK,22.29,114.16,71.98,1587246231,83,75.0,3.0,33
Bredasdorp,ZA,-34.53,20.04,53.6,1587246268,93,53.6,4.7,46
Zabid,YE,14.2,43.32,88.38,1587246269,57,88.38,9.22,77
Roebourne,AU,-20.78,117.13,82.44,1587246270,57,82.44,7.85,100
Springbok,ZA,-29.66,17.89,55.17,1587246270,39,55.17,2.1,56
Kruisfontein,ZA,-34.0,24.73,65.19,1587246270,43,65.19,6.08,0
New Norfolk,AU,-42.78,147.06,42.89,1587245983,87,44.01,2.44,60
Cherskiy,RU,68.75,161.3,2.01,1587246271,87,2.01,6.58,42
Sioux Lookout,CA,50.1,-91.92,38.88,1587246091,51,39.2,10.29,90
Jamestown,US,42.1,-79.24,44.17,1587246272,45,46.0,16.11,40
Odesa,UA,46.48,30.73,46.4,1587246201,49,46.4,5.99,15
Yellowknife,CA,62.46,-114.35,23.27,1587246273,85,24.01,13.87,90
Chāndbāli,IN,20.78,86.77,80.26,1587246273,86,80.26,10.45,0
Bambous Virieux,MU,-20.34,57.76,77.49,1587246273,88,78.01,14.99,40
Pisco,PE,-13.7,-76.22,74.68,1587246273,64,75.2,16.11,21
Chui,UY,-33.7,-53.46,66.63,1587246273,82,66.63,7.23,18
Talnakh,RU,69.49,88.4,37.4,1587246274,74,37.4,29.08,100
Mehamn,NO,71.04,27.85,33.1,1587246274,91,33.1,7.87,28
Boguchany,RU,58.38,97.45,24.39,1587246274,93,24.39,4.07,0
Geraldton,AU,-28.77,114.6,65.46,1587246274,82,66.2,6.93,40
Erzin,TR,36.96,36.2,65.17,1587246275,63,66.2,11.41,96
San Policarpo,PH,12.18,125.51,81.57,1587246275,78,81.57,14.65,22
Padang,ID,-0.95,100.35,78.28,1587246276,77,78.28,1.59,95
Bethel,US,41.37,-73.41,40.46,1587246276,86,42.01,6.93,90
Meru,KE,0.05,37.66,65.19,1587246277,53,65.19,3.56,100
Marzuq,YE,14.4,46.47,74.8,1587246278,47,74.8,4.34,83
Rawson,AR,-43.3,-65.1,69.08,1587246025,63,69.08,17.13,76
Dikson,RU,73.51,80.55,35.24,1587246008,89,35.24,19.1,100
Saint George,US,37.1,-113.58,69.91,1587246000,28,70.0,10.29,75
Saint-Joseph,RE,-21.37,55.62,69.51,1587246008,78,75.2,9.17,11
Nanortalik,GL,60.14,-45.24,29.5,1587246019,91,29.5,3.91,82
Governador Valadares,BR,-18.85,-41.95,73.29,1587246035,83,73.29,3.18,75
Reconquista,AR,-29.15,-59.65,75.11,1587246281,47,75.11,5.03,0
Klaksvík,FO,62.23,-6.59,42.8,1587246021,81,42.8,11.41,0
Wamba,NG,8.93,8.6,82.22,1587246282,52,82.22,0.65,36
Cockburn Town,TC,21.46,-71.14,82.4,1587246283,65,82.4,10.29,40
Charters Towers,AU,-20.1,146.27,71.55,1587246283,81,71.55,4.18,22
Kem',RU,64.96,34.58,32.86,1587246283,95,32.86,14.25,99
Khatanga,RU,71.97,102.5,9.54,1587246039,93,9.54,5.06,0
Fortuna,US,40.6,-124.16,56.86,1587246076,76,59.0,6.73,90
Qaanaaq,GL,77.48,-69.36,20.75,1587246284,87,20.75,9.42,100
Mahon,ES,39.89,4.27,62.6,1587246285,93,62.6,8.05,100
Codrington,AU,-38.27,141.97,50.97,1587246285,84,50.97,8.48,72
Westport,US,41.14,-73.36,43.39,1587246286,61,46.4,12.75,90
Torbay,CA,47.67,-52.73,37.29,1587246027,44,37.99,11.41,75
Mafinga,TZ,-7.25,35.07,65.73,1587246286,67,65.73,2.82,98
Mitú,CO,1.2,-70.17,74.75,1587246203,84,74.75,3.11,98
Ketchikan,US,55.34,-131.65,52.9,1587246286,66,53.6,17.22,1
Ugra,RU,54.78,34.33,33.73,1587246287,83,33.73,6.51,74
Port-Cartier,CA,50.03,-66.87,35.82,1587246056,59,36.0,10.29,75
Luganville,VU,-15.53,167.17,81.46,1587246287,79,81.46,4.68,48
Tabou,CI,4.42,-7.35,79.79,1587246287,87,79.79,7.99,100
Nikolskoye,RU,59.7,30.79,35.4,1587246288,91,37.4,13.42,75
Clyde River,CA,70.47,-68.59,14.0,1587246288,85,14.0,3.36,75
Soyo,AO,-6.13,12.37,79.16,1587246289,79,79.16,3.02,100
Najrān,SA,17.49,44.13,78.8,1587246289,47,78.8,13.87,40
Hilo,US,19.73,-155.09,77.59,1587246263,51,82.4,11.41,40
Yeppoon,AU,-23.13,150.73,73.4,1587246151,94,73.4,5.82,90
Saskylakh,RU,71.92,114.08,8.49,1587246292,79,8.49,5.37,0
Baykit,RU,61.67,96.37,18.95,1587246292,91,18.95,1.5,0
Quatre Cocos,MU,-20.21,57.76,77.54,1587246293,88,78.01,14.99,40
Wakkanai,JP,45.41,141.67,41.18,1587246293,75,41.18,10.69,71
Grindavik,IS,63.84,-22.43,35.08,1587246293,93,35.6,8.05,90
Erenhot,CN,43.65,111.98,46.94,1587246294,49,46.94,11.07,56
Bay Roberts,CA,47.6,-53.26,38.12,1587246294,47,39.0,5.01,22
Sur,OM,22.57,59.53,82.44,1587246284,57,82.44,6.85,28
Cape Town,ZA,-33.93,18.42,62.6,1587246181,59,62.6,1.12,91
Rome,US,43.21,-75.46,45.59,1587246200,36,46.99,20.8,20
São João da Barra,BR,-21.64,-41.05,75.2,1587246283,78,75.2,11.41,20
Husavik,IS,66.04,-17.34,44.6,1587246295,75,44.6,27.51,75
Kapaa,US,22.08,-159.32,78.91,1587246157,65,80.6,8.05,1
Laas,IT,46.62,10.7,53.6,1587246296,58,53.6,6.93,20
Comodoro Rivadavia,AR,-45.87,-67.5,71.6,1587246296,33,71.6,17.22,75
Isangel,VU,-19.55,169.27,79.59,1587246296,81,79.59,10.49,85
Shiyan,CN,32.65,110.78,47.61,1587246297,79,47.61,2.84,23
Norman Wells,CA,65.28,-126.83,39.2,1587246297,86,39.2,19.46,90
Bonthe,SL,7.53,-12.51,80.2,1587246298,78,80.2,7.58,75
Avarua,CK,-21.21,-159.78,80.6,1587246037,74,80.6,5.82,54
Berdigestyakh,RU,62.1,126.7,5.22,1587246298,92,5.22,2.98,96
Port Lincoln,AU,-34.73,135.87,58.19,1587246012,75,58.19,8.25,33
Santa Isabel Rio Negro,BR,-0.41,-65.02,81.7,1587246299,81,81.7,3.42,48
Cayenne,GF,4.93,-52.33,84.2,1587246299,74,84.2,8.05,20
Maniitsoq,GL,65.42,-52.9,26.78,1587246093,92,26.78,17.85,100
Komsomolets,KZ,53.75,62.07,43.03,1587246299,71,43.03,8.41,66
East London,ZA,-33.02,27.91,71.22,1587246300,66,71.22,17.54,0
Port-Gentil,GA,-0.72,8.78,82.06,1587246300,83,82.06,10.16,59
São Filipe,CV,14.9,-24.5,71.69,1587246096,73,71.69,21.59,14
Flin Flon,CA,54.77,-101.86,23.0,1587246301,41,23.0,16.11,20
Barrow,US,71.29,-156.79,1.4,1587246007,77,1.4,13.87,1
Newport,GB,51.59,-3.0,47.41,1587246302,96,50.0,6.71,43
George Town,MY,5.41,100.34,80.11,1587246302,94,82.4,3.36,40
Pangnirtung,CA,66.15,-65.71,7.84,1587246302,86,7.84,1.03,99
Longyearbyen,SJ,78.22,15.64,28.4,1587246144,74,28.4,2.24,20
Qiongshan,CN,20.01,110.35,75.2,1587246303,88,75.2,4.47,62
Senneterre,CA,48.38,-77.23,44.6,1587246303,36,44.6,12.75,75
Sola,VU,-13.88,167.55,82.83,1587246284,78,82.83,12.12,85
Ostrovnoy,RU,68.05,39.51,30.58,1587246304,97,30.58,8.61,99
Santa Maria,BR,-29.68,-53.81,69.48,1587246304,63,69.48,4.94,0
Chokurdakh,RU,70.63,147.92,-6.72,1587246305,88,-6.72,8.59,100
Kishanganj,IN,26.12,87.93,77.56,1587246305,63,77.56,7.96,2
Tandil,AR,-37.32,-59.13,65.86,1587246305,61,65.86,9.95,0
Tessalit,ML,20.2,1.01,87.4,1587246306,11,87.4,5.64,5
Tupelo,US,34.26,-88.7,63.88,1587246306,39,64.4,3.36,1
Mapiri,BO,-15.25,-68.17,79.12,1587246306,35,79.12,3.62,24
Pevek,RU,69.7,170.31,-0.81,1587246306,91,-0.81,7.34,29
Salalah,OM,17.02,54.09,82.4,1587246036,69,82.4,5.82,40
Hay River,CA,60.82,-115.8,39.2,1587246017,55,39.2,2.24,75
Tugulym,RU,57.06,64.64,41.0,1587246308,86,41.0,8.95,49
Esperance,AU,-33.87,121.9,59.0,1587246308,100,59.0,13.87,75
Dunedin,NZ,-45.87,170.5,52.11,1587246308,60,53.01,7.94,100
Sisophon,KH,13.59,102.97,80.69,1587246309,75,80.69,4.61,21
Kysyl-Syr,RU,63.9,122.76,1.11,1587246310,91,1.11,6.33,16
Byron Bay,AU,-28.65,153.62,64.2,1587246310,93,64.4,4.7,40
Arraial do Cabo,BR,-22.97,-42.03,74.43,1587246158,78,75.2,4.7,75
Lüderitz,NA,-26.65,15.16,57.2,1587246311,93,57.2,2.24,7
Trairi,BR,-3.28,-39.27,80.26,1587246091,79,80.26,4.05,51
Poplar Bluff,US,36.76,-90.39,57.42,1587246313,41,57.99,6.93,1
Ayr,GB,55.46,-4.63,44.06,1587246313,70,46.4,9.17,3
Hambantota,LK,6.12,81.12,81.46,1587246313,80,81.46,6.29,23
Natal,BR,-5.79,-35.21,82.4,1587246223,78,82.4,4.7,40
Paamiut,GL,61.99,-49.67,27.77,1587246314,94,27.77,23.58,100
Popondetta,PG,-8.75,148.25,77.0,1587246314,78,77.0,3.62,34
Baiyin,CN,36.56,104.21,44.49,1587246314,60,53.01,6.71,36
Varėna,LT,54.22,24.57,36.91,1587246315,64,37.4,3.36,75
Upernavik,GL,72.79,-56.15,24.46,1587246315,90,24.46,23.78,100
Port Hardy,CA,50.7,-127.42,51.8,1587246316,81,51.8,4.7,20
Praia,CV,14.92,-23.51,71.6,1587246316,60,71.6,26.4,20
Carnarvon,AU,-24.87,113.63,73.4,1587246316,88,73.4,9.17,40
Katsuura,JP,35.13,140.3,56.62,1587246317,82,60.01,5.82,20
Kuna,US,43.49,-116.42,66.22,1587246043,22,68.0,6.93,1
Helena,US,46.59,-112.04,51.8,1587246185,54,51.8,16.11,20
Taltal,CL,-25.4,-70.48,67.51,1587246319,67,67.51,4.92,26
Ziyang,CN,29.25,117.85,64.96,1587246320,89,64.96,1.57,100
Minsk,BY,53.9,27.57,35.6,1587246282,64,35.6,6.71,100
Mayo,US,38.89,-76.51,52.72,1587246086,47,54.0,14.52,20
Ningyang,CN,35.76,116.79,51.35,1587246322,84,51.35,6.51,100
Kununurra,AU,-15.77,128.73,73.4,1587246322,94,73.4,1.12,68
Pyapon,MM,16.28,95.68,72.55,1587246322,88,72.55,6.53,0
Ossora,RU,59.24,163.07,18.07,1587246323,90,18.07,5.08,0
Deputatsky,RU,69.3,139.9,-9.35,1587246323,72,-9.35,1.99,58
Yumen,CN,40.28,97.2,51.57,1587246324,24,51.57,11.27,93
Aklavik,CA,68.22,-135.01,23.61,1587246324,73,24.8,8.05,75
Marsh Harbour,BS,26.54,-77.06,80.74,1587246324,75,80.74,12.82,44
Santa Cruz de la Sierra,BO,-17.8,-63.17,86.0,1587246325,28,86.0,10.29,5
Edd,ER,13.93,41.69,86.81,1587246325,62,86.81,23.51,100
Sitka,US,57.05,-135.33,46.13,1587246326,87,46.4,3.36,40
Tumpat,MY,6.2,102.17,80.29,1587246326,83,80.6,3.36,20
Prince Rupert,CA,54.32,-130.32,51.8,1587246326,58,51.8,6.93,1
Kumul,CN,42.8,93.45,62.38,1587246326,21,62.38,11.95,100
Hamilton,US,39.18,-84.53,55.13,1587246257,47,57.0,9.17,1
Agirish,RU,61.92,63.02,36.73,1587246328,91,36.73,9.33,100
Naryan-Mar,RU,67.67,53.09,30.85,1587246328,98,30.85,4.9,100
Nouakchott,MR,18.09,-15.98,66.2,1587246242,82,66.2,17.22,0
Yangi Marg`ilon,UZ,40.43,71.72,53.6,1587246329,66,53.6,2.24,4
Muravlenko,RU,63.79,74.52,38.16,1587246329,92,38.16,11.68,100
Severnoye,RU,56.35,78.36,45.45,1587246089,79,45.45,10.38,100
Port Moresby,PG,-9.44,147.18,75.2,1587246330,100,75.2,3.36,20
Cabo San Lucas,MX,22.89,-109.91,76.87,1587246315,56,80.01,19.46,5
Marabu,MY,4.41,114.01,75.11,1587246332,100,75.2,1.12,75
Avera,US,33.19,-82.53,76.3,1587246137,27,78.8,8.05,1
San Quintín,MX,30.48,-115.95,64.15,1587246333,57,64.15,17.96,0
Ribeira Grande,PT,38.52,-28.7,62.78,1587246333,88,62.78,18.07,100
Rocha,UY,-34.48,-54.33,65.19,1587246086,81,65.19,6.91,0
Shunyi,CN,40.12,116.65,59.0,1587246333,54,59.0,6.71,100
Dagumba-an,PH,8.15,124.59,68.4,1587246334,65,68.4,3.15,53
Constitución,CL,-35.33,-72.42,65.19,1587246334,83,65.19,9.69,83
Barentu,ER,15.11,37.59,74.73,1587246335,18,74.73,5.01,61
Ambon City,ID,-3.7,128.18,82.69,1587246335,73,82.69,2.75,70
Santa Rosa,PH,14.31,121.11,81.45,1587246336,78,82.4,4.7,75
Amapá,BR,1.0,-52.0,78.58,1587246336,80,78.58,1.43,66
Eureka,US,40.8,-124.16,55.26,1587246336,71,55.99,5.01,99
Haines Junction,CA,60.75,-137.51,47.34,1587246336,44,47.34,2.1,12
Staritsa,RU,56.51,34.94,34.27,1587246337,89,34.27,7.63,93
Ilulissat,GL,69.22,-51.1,24.8,1587246337,79,24.8,5.82,100
Saint Anthony,US,45.02,-93.22,61.36,1587246338,38,64.4,12.75,90
Aswān,EG,24.09,32.91,71.06,1587246089,23,71.06,8.25,6
Hangu,CN,39.25,117.79,60.8,1587246339,41,60.8,4.47,100
Arlit,NE,18.74,7.39,88.29,1587246340,10,88.29,3.22,0
Tuatapere,NZ,-46.13,167.68,46.4,1587246277,83,46.4,4.81,54
Kahului,US,20.89,-156.47,78.73,1587246307,48,84.2,19.46,20
Wichita Falls,US,33.91,-98.49,65.32,1587246202,45,66.2,10.29,75
Hays,US,30.05,-98.03,59.74,1587246341,89,61.0,1.99,100
Raudeberg,NO,61.99,5.14,40.71,1587246341,75,42.8,5.82,0
Harper,LR,4.38,-7.72,80.46,1587246334,84,80.46,8.28,100
Samarai,PG,-10.62,150.67,80.65,1587246342,80,80.65,1.41,99
Batemans Bay,AU,-35.72,150.18,49.68,1587246315,100,57.0,1.72,95
Togul,RU,53.47,85.91,38.64,1587246342,70,38.64,7.99,0
Wasilla,US,61.58,-149.44,52.02,1587246343,66,55.4,2.59,90
Buraidah,SA,26.33,43.98,69.8,1587246343,77,69.8,18.34,95
Broome,US,42.25,-75.83,40.55,1587246343,48,42.01,16.11,90
Saint-Pierre,RE,-21.34,55.48,71.51,1587246344,83,77.0,11.41,20
Dedza,MW,-14.38,34.33,56.61,1587246344,66,56.61,6.29,19
Touros,BR,-5.2,-35.46,82.4,1587246344,83,82.4,6.93,75
Solnechnyy,RU,50.72,136.63,29.71,1587246080,87,29.71,3.53,84
Honiara,SB,-9.43,159.95,75.2,1587246233,94,75.2,2.24,40
Vila Franca do Campo,PT,37.72,-25.43,62.6,1587246346,93,62.6,13.87,75
Curanilahue,CL,-37.47,-73.35,65.01,1587246346,60,65.01,5.84,53
Shimoda,JP,34.67,138.95,55.99,1587246346,83,55.99,3.0,0
Dinard,FR,48.63,-2.06,55.54,1587246347,82,57.2,4.7,8
Lübben,DE,51.95,13.9,47.98,1587246347,50,48.99,1.01,7
Darovskoy,RU,58.77,47.96,33.01,1587246348,89,33.01,6.06,100
Kiryat Gat,IL,31.61,34.76,63.21,1587246183,18,66.0,7.49,0
Alice Springs,AU,-23.7,133.88,59.0,1587246348,54,59.0,4.7,20
Forrest City,US,35.01,-90.79,60.08,1587246349,51,60.8,4.23,1
Guerrero Negro,MX,27.98,-114.06,66.88,1587246350,54,66.88,20.78,0
Faanui,PF,-16.48,-151.75,82.87,1587246350,73,82.87,9.57,26
Nabire,ID,-3.37,135.48,76.96,1587246350,87,76.96,3.98,100
Mormugao,IN,15.4,73.8,79.48,1587246351,88,79.48,5.32,24
Severo-Kuril'sk,RU,50.68,156.12,34.39,1587246351,88,34.39,10.07,9
Lagoa,PT,39.05,-27.98,62.29,1587246351,91,62.29,23.26,100
Santa Fe,AR,-31.63,-60.7,76.6,1587246351,47,81.0,1.99,0
Kaitangata,NZ,-46.28,169.85,48.83,1587246079,75,53.01,4.0,100
Olafsvik,IS,64.89,-23.71,34.56,1587246353,88,34.56,2.62,100
Ewo,CG,-0.87,14.82,76.1,1587246353,76,76.1,2.42,86
Taoudenni,ML,22.68,-3.98,81.43,1587246353,43,81.43,24.67,14
Muros,ES,42.78,-9.06,48.79,1587246353,91,53.01,1.01,24
Hasaki,JP,35.73,140.83,53.19,1587246354,76,54.0,6.93,75
Road Town,VG,18.42,-64.62,82.0,1587246329,80,82.0,11.99,15
Vao,NC,-22.67,167.48,75.69,1587246355,69,75.69,10.04,74
Sæby,DK,57.33,10.52,36.0,1587246355,72,36.0,8.12,0
Portland,US,45.52,-122.68,51.98,1587246262,76,54.0,10.29,90
Pacific Grove,US,36.62,-121.92,60.55,1587246355,51,62.6,10.29,90
Forsytheganj,BY,52.63,29.73,37.0,1587246356,75,37.0,6.73,72
Bathsheba,BB,13.22,-59.52,82.4,1587246307,65,82.4,17.22,20
Hofn,IS,64.25,-15.21,45.36,1587246357,87,45.36,17.56,100
Matamoros,MX,25.53,-103.25,95.0,1587246357,12,95.0,11.41,75
Camacha,PT,33.08,-16.33,62.6,1587246358,67,62.6,11.41,20
Chul'man,RU,56.85,124.91,6.62,1587246358,83,6.62,6.89,100
Alțâna,RO,45.93,24.47,49.32,1587246358,76,50.0,1.12,89
Ivdel',RU,60.69,60.42,36.81,1587246358,87,36.81,6.33,100
Maţāy,EG,28.42,30.78,70.81,1587246359,44,70.81,17.11,0
Corning,US,42.14,-77.05,43.25,1587246359,48,44.6,8.05,90
Cap Malheureux,MU,-19.98,57.61,77.65,1587246065,88,78.01,14.99,40
Kapiri Mposhi,ZM,-13.97,28.68,62.22,1587246359,62,62.22,6.31,0
Kungurtug,RU,50.6,97.52,28.15,1587246359,55,28.15,2.44,2
Oktyabr'skiy,RU,54.48,53.47,35.91,1587246360,79,35.91,6.98,46
Saldanha,ZA,-33.01,17.94,66.2,1587246316,39,66.2,3.36,92
Wau,SS,7.7,28.0,80.82,1587246362,20,80.82,3.76,78
Pokhara,NP,28.23,83.98,62.33,1587246362,34,62.33,4.09,35
Mount Isa,AU,-20.73,139.5,69.8,1587246363,30,69.8,9.17,0
Evanston,US,42.04,-87.69,57.54,1587246364,41,59.0,23.04,20
Teguise,ES,29.06,-13.56,64.4,1587246364,77,64.4,9.17,20
Ponta do Sol,PT,32.67,-17.1,56.57,1587246364,58,59.0,11.99,11
Agarak,AM,39.21,46.54,52.39,1587246364,57,52.39,3.09,69
Provideniya,RU,64.38,-173.3,22.05,1587246364,95,22.05,14.54,100
Mayskiy,RU,47.69,40.1,41.92,1587246364,44,43.0,4.47,93
City of San Pedro,PH,14.35,121.02,81.48,1587246365,78,82.4,4.7,75
Karratha,AU,-20.74,116.85,82.06,1587246365,60,82.06,8.84,100
Riberalta,BO,-10.98,-66.1,81.43,1587246365,53,81.43,3.38,81
Bengkulu,ID,-3.8,102.27,76.73,1587246095,85,76.73,4.03,100
Watrous,CA,51.67,-105.47,31.93,1587246097,70,31.93,16.4,62
Ilhabela,BR,-23.78,-45.36,72.59,1587246365,75,72.59,7.87,76
Shache,CN,38.42,77.24,56.03,1587246365,37,56.03,10.04,99
Balboa,CO,2.04,-77.22,68.2,1587246366,60,68.2,2.95,46
Octeville,FR,49.63,-1.64,48.54,1587246366,100,52.0,8.05,69
Korsakov,RU,46.63,142.78,32.0,1587246367,75,32.0,15.66,75
Oistins,BB,13.07,-59.53,82.4,1587246368,65,82.4,17.22,20
Gopāmau,IN,27.55,80.28,80.91,1587246368,22,80.91,2.35,74
Sørland,NO,67.67,12.69,40.62,1587246369,92,40.62,8.61,100
Mahébourg,MU,-20.41,57.7,77.4,1587246369,88,78.01,14.99,40
Jalu,LY,29.03,21.55,68.88,1587246278,28,68.88,5.12,0
Sai Buri,TH,6.7,101.62,79.86,1587246370,83,79.86,6.17,100
Atambua,ID,-9.11,124.89,72.16,1587246370,75,72.16,3.71,54
Ust'-Kan,RU,50.93,84.76,37.81,1587246370,49,37.81,1.48,0
Port Macquarie,AU,-31.43,152.92,56.48,1587246159,95,57.0,4.45,58
High Rock,BS,26.62,-78.28,80.6,1587246371,83,80.6,10.29,75
Canavieiras,BR,-15.68,-38.95,75.4,1587246371,93,75.4,9.48,100
Khovd,MN,48.01,91.64,33.98,1587246371,41,33.98,2.66,0
Thanh Hoa,VN,19.8,105.77,73.89,1587246372,92,73.89,5.66,53
Porto-Novo,BJ,6.5,2.6,84.2,1587246372,83,84.2,11.41,40
Port Hedland,AU,-20.32,118.57,75.2,1587246372,100,75.2,6.93,99
Polunochnoye,RU,60.87,60.42,35.65,1587246372,88,35.65,5.97,100
Lompoc,US,34.64,-120.46,61.25,1587246260,55,62.6,11.41,90
Laguna,US,38.42,-121.42,67.53,1587246103,48,69.01,9.17,1
Dorado,PR,18.46,-66.27,79.36,1587246295,74,82.4,9.17,75
Benjamín Aceval,PY,-24.97,-57.57,84.2,1587246373,30,84.2,4.7,0
Makakilo City,US,21.35,-158.09,79.52,1587246374,57,80.6,9.17,1
Puerto Madero,MX,14.72,-92.42,91.4,1587246374,43,91.4,13.87,75
Puerto Nariño,CO,-3.77,-70.38,87.8,1587246374,66,87.8,4.7,40
Pāvugada,IN,14.1,77.27,78.94,1587246374,40,78.94,4.32,0
Souillac,MU,-20.52,57.52,77.47,1587246375,88,78.01,14.99,40
Sept-Îles,CA,50.2,-66.38,35.82,1587246375,59,36.0,10.29,75
Bandarbeyla,SO,9.49,50.81,81.25,1587246376,73,81.25,9.13,50
Tocopilla,CL,-22.09,-70.2,80.13,1587246376,30,80.13,6.78,5
Tilichiki,RU,60.47,166.1,7.43,1587246376,90,7.43,10.0,0
Meulaboh,ID,4.14,96.13,78.67,1587246377,83,78.67,4.43,61
Lahaina,US,20.88,-156.68,79.66,1587246378,47,84.2,6.93,1
Iranshahr,IR,27.2,60.68,75.2,1587246378,47,75.2,3.85,100
Kattivākkam,IN,13.22,80.32,84.09,1587246378,83,84.2,7.85,20
Kampot,KH,10.62,104.18,80.8,1587246378,79,80.8,2.66,85
Wagga Wagga,AU,-35.12,147.37,39.06,1587246379,100,41.0,4.7,0
Sobolevo,RU,54.43,31.9,35.92,1587246375,79,35.92,6.89,99
Gobabis,NA,-22.45,18.97,66.2,1587246380,88,66.2,5.82,9
Sittwe,MM,20.15,92.9,75.38,1587246380,87,75.38,3.69,15
Petropavlovsk-Kamchatskiy,RU,53.05,158.65,42.8,1587246381,35,42.8,2.24,4
Bilma,NE,18.69,12.92,83.82,1587246381,12,83.82,5.03,0
Novosergiyevka,RU,52.09,53.65,39.61,1587246381,67,39.61,4.38,27
Egvekinot,RU,66.32,-179.17,6.67,1587246264,89,6.67,21.45,100
Gorontalo,ID,0.54,123.06,75.94,1587246382,88,75.94,2.57,40
Mogadishu,SO,2.04,45.34,83.91,1587246146,76,83.91,12.03,96
Huarmey,PE,-10.07,-78.15,77.97,1587246383,63,77.97,9.91,18
Batagay-Alyta,RU,67.8,130.41,-3.82,1587246125,67,-3.82,3.53,0
Dudinka,RU,69.41,86.18,37.4,1587246384,74,37.4,29.08,100
Kedrovyy,RU,56.17,91.82,26.6,1587246384,79,26.6,2.24,13
Ola,RU,59.58,151.28,8.49,1587246384,85,8.49,13.53,100
Luzhou,CN,28.87,105.44,61.81,1587246384,80,61.81,2.35,0
Leningradskiy,RU,69.38,178.42,2.21,1587246385,88,2.21,7.49,6
Muromtsevo,RU,56.37,75.24,49.32,1587246385,71,49.32,8.08,100
Turukhansk,RU,65.82,87.98,37.63,1587246385,79,37.63,15.48,100
Adrar,MR,20.5,-10.07,74.03,1587246386,40,74.03,9.93,100
Kawalu,ID,-7.38,108.21,72.61,1587246386,76,72.61,1.68,100
Tsiroanomandidy,MG,-18.77,46.03,67.48,1587246386,61,67.48,3.11,69
Lødingen,NO,68.41,16.0,35.11,1587246386,93,37.4,10.29,93
Bismil,TR,37.85,40.67,56.3,1587246387,93,59.0,6.93,20
Ballina,AU,-28.87,153.57,64.24,1587246387,93,64.4,4.7,40
La Unión,PE,-5.4,-80.75,81.88,1587246387,55,81.88,9.86,1
Nālūt,LY,30.33,10.85,80.1,1587246388,21,80.1,22.57,8
Shreveport,US,32.53,-93.75,65.12,1587246355,63,66.2,4.7,1
Wonthaggi,AU,-38.6,145.59,52.03,1587246388,94,53.01,3.4,72
Östersund,SE,63.18,14.64,36.05,1587246102,83,37.0,13.87,0
Cabedelo,BR,-6.98,-34.83,80.6,1587246389,88,80.6,5.77,20
Pouso Alegre,BR,-22.23,-45.94,64.94,1587246211,64,64.94,3.02,97
Bull Savanna,JM,17.89,-77.59,82.65,1587246389,58,82.65,9.57,22
Cidreira,BR,-30.18,-50.21,68.59,1587246389,78,68.59,11.72,0
Kavieng,PG,-2.57,150.8,81.88,1587246390,78,81.88,4.0,92
Praia da Vitória,PT,38.73,-27.07,62.6,1587246390,88,62.6,17.31,40
Aras,ES,42.56,-2.36,53.58,1587246390,93,55.4,4.7,99
Caravelas,BR,-17.71,-39.25,76.51,1587246391,78,76.51,19.64,94
Neuquén,AR,-38.95,-68.06,87.8,1587246391,25,87.8,6.93,100
Norrtälje,SE,59.76,18.7,41.97,1587246391,65,43.0,3.0,0
Ostrów Mazowiecka,PL,52.8,21.9,37.83,1587246391,70,37.83,1.9,33
Lata,PT,40.16,-8.33,53.01,1587246254,91,53.01,3.0,29
Evensk,RU,61.95,159.23,13.21,1587246392,88,13.21,11.43,100
Turaif,SA,31.67,38.66,64.4,1587246392,55,64.4,9.17,26
Balkanabat,TM,39.51,54.37,69.87,1587246392,38,69.87,6.15,0
Coihueco,CL,-36.62,-71.83,75.2,1587246393,64,75.2,11.41,75
Tolaga Bay,NZ,-38.37,178.3,63.5,1587246393,70,63.5,11.52,66
Luena,AO,-11.78,19.92,63.5,1587246373,64,63.5,1.16,99
Omboué,GA,-1.57,9.26,79.72,1587246394,89,79.72,5.73,96
Buala,SB,-8.14,159.59,81.12,1587246394,78,81.12,0.67,86
Buckingham,GB,52.0,-0.99,45.0,1587246394,85,45.0,7.72,10
Harlingen,US,26.19,-97.7,82.4,1587246395,65,82.4,12.75,20
Dombarovskiy,RU,50.76,59.54,44.71,1587246395,80,44.71,7.18,92
Podhum,BA,43.72,17.0,57.2,1587246396,62,57.2,0.49,64
Umluj,SA,25.02,37.27,73.78,1587246396,49,73.78,4.81,100
Tiznit Province,MA,29.58,-9.5,58.08,1587246311,64,58.08,9.26,82
Tra Vinh,VN,9.93,106.35,79.57,1587246397,82,79.57,6.67,98
Kulu,TR,39.1,33.08,55.24,1587246397,29,55.24,6.17,15
Mathathane,BW,-22.27,28.75,69.62,1587246398,59,69.62,13.89,0
Beringovskiy,RU,63.05,179.32,19.74,1587246266,96,19.74,17.29,100
Maceió,BR,-9.67,-35.74,80.6,1587246344,88,80.6,9.17,75
Moshi,TZ,-3.35,37.33,68.0,1587246399,100,68.0,6.93,75
Kalyān,IN,19.25,73.15,86.0,1587246399,79,86.0,3.36,20
Qaqortoq,GL,60.72,-46.03,32.0,1587246363,93,32.0,5.82,87
Pueblo Bello,CO,8.2,-76.53,84.2,1587246400,70,84.2,17.22,75
Ensenada,MX,31.87,-116.62,66.99,1587246400,69,66.99,5.01,52
Mubi,NG,10.27,13.26,82.35,1587246401,11,82.35,4.41,93
Władysławowo,PL,54.79,18.4,36.99,1587246401,57,41.0,7.63,0
Aguadilla,PR,18.43,-67.15,75.27,1587246401,92,77.0,12.73,27
Midyat,TR,37.42,41.34,55.71,1587246204,76,57.2,6.93,23
Pontes e Lacerda,BR,-15.23,-59.34,77.63,1587246403,73,77.63,3.67,95
Moose Factory,CA,51.26,-80.61,42.8,1587246403,60,42.8,27.51,90
Lumphat,KH,13.49,106.98,76.51,1587246403,87,76.51,2.3,20
Snåase,NO,64.25,12.38,37.35,1587246403,83,37.35,3.2,89
Durban,ZA,-29.86,31.03,69.64,1587246363,88,71.6,6.93,75
Malim,PH,7.45,123.43,81.3,1587246403,75,81.3,5.59,0
Willowmore,ZA,-33.29,23.49,64.69,1587246404,20,64.69,9.17,0
Uchaly,RU,54.3,59.45,33.21,1587246404,74,33.21,8.81,70
Mareeba,AU,-17.0,145.43,72.0,1587246404,96,72.0,3.0,43
Kokkola,FI,63.84,23.13,34.02,1587246405,91,36.0,8.05,40
Srednekolymsk,RU,67.45,153.68,-5.55,1587246406,90,-5.55,9.55,77
Assiniboia,CA,49.63,-105.98,40.71,1587246406,45,40.71,17.27,87
Lianyuan,CN,27.69,111.66,57.79,1587246406,85,57.79,4.85,90
Vila Velha,BR,-20.33,-40.29,76.46,1587246249,65,77.0,12.75,20
Grudziądz,PL,53.48,18.75,36.86,1587246407,81,39.99,6.17,2
Vestmannaeyjar,IS,63.44,-20.27,45.5,1587246407,93,45.5,17.11,100
Villa Carlos Paz,AR,-31.42,-64.5,76.62,1587246249,36,79.0,13.87,0
Arys,KZ,42.43,68.8,50.0,1587246408,81,50.0,8.95,0
Northam,GB,51.03,-4.22,50.32,1587246408,92,52.0,3.0,67
Bahía Honda,CU,22.9,-83.16,87.82,1587246409,55,87.82,9.33,17
Port Keats,AU,-14.25,129.55,82.78,1587246410,81,82.78,6.82,33
Mahibadhoo,MV,3.78,72.97,84.63,1587246410,74,84.63,7.65,58
Xichang,CN,27.9,102.26,58.86,1587246411,40,58.86,0.43,6
Sant Julià de Loria,AD,42.46,1.48,48.94,1587246412,53,48.94,3.56,56
La Ronge,CA,55.1,-105.28,32.0,1587246318,85,32.0,13.87,75
Korla,CN,41.76,86.15,59.32,1587246412,37,59.32,9.98,99
Boyolangu,ID,-8.12,111.89,76.75,1587246413,83,76.75,2.04,100
Sisimiut,GL,66.94,-53.67,23.9,1587246413,92,23.9,2.13,100
Coesfeld,DE,51.93,7.15,56.89,1587246413,92,59.0,1.01,79
San Patricio,MX,19.22,-104.7,80.6,1587246413,83,80.6,17.22,20
Nago,JP,26.59,127.98,70.09,1587246414,94,71.6,9.17,1
Morro Bay,US,35.37,-120.85,60.46,1587246415,70,61.0,3.0,42
Nome,US,64.5,-165.41,33.89,1587246416,100,34.0,6.93,90
Monte Patria,CL,-30.69,-70.95,84.94,1587246416,22,84.94,6.98,0
Ilebo,CD,-4.32,20.58,71.92,1587246417,85,71.92,2.26,93
Pathein,MM,16.78,94.73,76.19,1587246418,84,76.19,7.94,0
Wetaskiwin,CA,52.97,-113.37,39.09,1587246419,44,39.2,2.24,20
Ginir,ET,7.13,40.7,60.22,1587246419,58,60.22,2.35,100
Hobyo,SO,5.35,48.53,84.65,1587246316,72,84.65,10.94,90
Sirte,LY,31.21,16.59,63.63,1587246137,68,63.63,11.39,66
Saurimo,AO,-9.66,20.39,64.65,1587246420,70,64.65,3.2,99
Manacapuru,BR,-3.3,-60.62,77.0,1587246420,88,77.0,3.36,40
Brae,GB,60.4,-1.35,39.74,1587246420,86,44.6,1.12,0
Puerto Limón,CR,10.0,-83.03,83.3,1587246421,61,83.3,7.81,3
Labuhan,ID,-6.88,112.21,78.6,1587246421,85,78.6,3.8,76
Pore,CO,5.73,-71.99,80.13,1587246421,70,80.13,3.69,47
Nong Phai,TH,15.99,101.06,83.01,1587246423,60,83.01,3.98,81
Rock Sound,BS,24.9,-76.2,78.39,1587246423,79,78.39,11.86,1
Kiama,AU,-34.68,150.87,53.8,1587246423,100,55.0,9.17,70
Flinders,AU,-34.58,150.86,53.1,1587246423,81,55.0,3.0,71
Sawtell,AU,-30.38,153.1,61.84,1587246424,93,63.0,3.36,40
Acapulco de Juárez,MX,16.86,-99.89,84.2,1587246381,74,84.2,9.17,5
Kidodi,TZ,-7.6,37.0,72.0,1587246424,81,72.0,2.13,99
Necochea,AR,-38.55,-58.74,67.66,1587246424,66,69.01,10.0,35
Ahipara,NZ,-35.17,173.17,65.62,1587246425,82,65.62,8.28,87
Graciano Sánchez,MX,23.92,-99.28,91.4,1587246425,41,91.4,6.93,90
Half Moon Bay,US,37.46,-122.43,63.81,1587246425,52,64.99,13.87,75
Haapiti,PF,-17.57,-149.87,87.8,1587246425,66,87.8,3.36,53
Laishevo,RU,55.4,49.55,32.0,1587246426,80,32.0,6.71,15
Vardø,NO,70.37,31.11,36.14,1587246426,82,36.14,19.93,91
Williamsburg,US,37.27,-76.71,60.73,1587246426,36,64.4,8.05,1
Martigues,FR,43.4,5.05,56.64,1587246426,87,57.2,2.24,95
Cuamba,MZ,-14.8,36.54,67.15,1587246427,78,67.15,5.37,4
Plettenberg Bay,ZA,-34.05,23.37,71.33,1587246427,33,71.33,5.73,0
St. George's,GD,12.06,-61.75,84.2,1587246427,70,84.2,17.22,20
Lakes Entrance,AU,-37.88,147.98,48.99,1587246427,90,48.99,7.61,77
Chenzhou,CN,25.8,113.03,65.66,1587246428,86,65.66,1.86,100
Maturin,VE,9.75,-63.18,89.91,1587246428,37,89.91,10.76,41
Jiuquan,CN,39.74,98.52,49.53,1587246429,26,49.53,1.77,99
Kiruna,SE,67.86,20.23,33.8,1587246430,86,33.8,3.36,36
Maningrida,AU,-12.07,134.27,74.59,1587246430,90,74.59,5.99,100
Itacaré,BR,-14.28,-39.0,78.8,1587246430,83,78.8,10.29,40
Tautira,PF,-17.73,-149.15,87.8,1587246430,66,87.8,3.36,78
Palana,RU,59.12,159.97,24.91,1587246431,97,24.91,9.31,100
Monte Blanco,MX,18.97,-97.02,85.55,1587246431,31,85.55,6.15,18
Shenzhen,CN,22.55,114.07,73.27,1587246035,99,75.99,5.14,40
Salamiyah,SY,35.01,37.05,63.97,1587246431,53,63.97,3.94,1
Dabakala,CI,8.37,-4.43,82.87,1587246432,66,82.87,6.96,15
Tooele,US,40.53,-112.3,59.05,1587246384,21,60.8,10.29,1
Adré,TD,13.47,22.2,75.47,1587246432,13,75.47,8.25,2
Huron,US,41.15,-82.55,50.38,1587246433,57,51.01,7.0,46
Spirit River,CA,55.78,-118.84,43.39,1587246433,48,44.6,3.36,20
Huilong,CN,31.81,121.66,56.44,1587246433,99,57.0,4.0,100
Uusikaupunki,FI,60.8,21.41,39.2,1587246433,64,39.2,5.82,0
Matagami,CA,49.75,-77.63,44.6,1587246433,36,44.6,16.11,75
Mahajanga,MG,-15.72,46.32,77.0,1587246433,83,77.0,10.29,40
Sokolo,ML,14.73,-6.12,96.28,1587246434,12,96.28,5.57,100
Arrondissement de Vire,FR,48.92,-0.83,51.42,1587246434,93,51.8,3.36,62
Champerico,GT,14.3,-91.92,89.6,1587246289,52,89.6,13.87,75
Coahuayana Viejo,MX,18.73,-103.68,89.6,1587246434,40,89.6,17.22,40
Sistranda,NO,63.73,8.83,42.06,1587246434,93,42.8,8.05,75
Cotacachi,EC,0.3,-78.27,64.4,1587246434,63,64.4,19.46,75
Denizli Province,TR,37.84,29.07,61.09,1587246435,41,61.09,3.0,0
Dubbo,AU,-32.25,148.62,46.4,1587246435,93,46.4,9.17,0
Dicabisagan,PH,17.08,122.42,78.44,1587246435,83,78.44,7.02,100
Biak,ID,-0.91,122.88,79.84,1587246355,77,79.84,2.73,14
Agramonte,CU,22.68,-81.12,93.2,1587246435,38,93.2,14.99,20
Gilgit,PK,35.92,74.31,52.45,1587246250,30,52.45,3.67,100
Tamale,GH,9.4,-0.84,84.43,1587246436,62,84.43,12.91,70
Jiazi,CN,22.88,116.07,72.68,1587246436,92,72.68,1.83,89
Mount Gambier,AU,-37.83,140.77,46.4,1587246309,100,46.4,6.93,90
Den Helder,NL,52.96,4.76,50.0,1587246436,76,50.0,14.99,90
Hibbing,US,47.43,-92.94,48.97,1587246437,42,50.0,13.87,90
Menongue,AO,-14.66,17.69,63.75,1587246437,59,63.75,4.56,89
Bontang,ID,0.13,117.5,79.02,1587246437,83,79.02,6.08,90
Lorengau,PG,-2.02,147.27,82.47,1587246438,74,82.47,3.04,3
Masasi,TZ,-10.72,38.8,68.76,1587246438,87,68.76,2.06,90
Lufilufi,WS,-13.87,-171.6,80.01,1587246438,83,80.01,5.01,55
Kennett,US,36.24,-90.06,59.74,1587246439,36,60.8,5.82,48
Manicoré,BR,-5.81,-61.3,78.8,1587246439,88,78.8,3.36,90
Asău,RO,46.43,26.4,48.72,1587246439,53,50.0,4.7,22
El Dorado,US,33.21,-92.67,68.99,1587246440,43,69.8,10.29,1
Bongaree,AU,-27.08,153.16,63.34,1587246440,93,64.99,6.26,81
Fort Nelson,CA,58.81,-122.7,60.8,1587246441,25,60.8,13.87,75
Nouadhibou,MR,20.93,-17.03,68.0,1587246441,77,68.0,13.87,0
Umm Bāb,QA,25.21,50.81,74.61,1587246441,88,77.0,5.82,1
Zeya,RU,53.75,127.27,26.35,1587246441,93,26.35,13.35,100
Iralaya,HN,15.0,-83.23,89.6,1587246442,66,89.6,10.29,20
Sinnamary,GF,5.38,-52.95,81.12,1587246442,82,81.12,10.16,34
Ulladulla,AU,-35.35,150.47,52.93,1587246354,100,54.0,9.17,89
Amarante do Maranhão,BR,-5.57,-46.74,75.02,1587246442,83,75.02,2.21,100
Hudson Bay,CA,52.85,-102.38,29.71,1587246442,82,29.71,10.49,100
Richards Bay,ZA,-28.78,32.04,72.9,1587246443,77,72.9,8.1,33
Puerto Madryn,AR,-42.77,-65.04,74.95,1587246340,46,74.95,14.56,88
Rudnichnyy,RU,59.62,52.47,32.31,1587246443,91,32.31,5.7,100
Warrington,GB,53.39,-2.58,48.22,1587246443,81,51.01,1.12,86
Khanbari,NP,27.37,87.2,65.26,1587246445,37,65.26,4.29,36
Scarborough,GB,54.28,-0.4,40.1,1587246267,91,41.0,7.36,33
Caucaia,BR,-3.74,-38.65,81.19,1587246446,78,82.4,4.7,40
Mariestad,SE,58.71,13.82,40.73,1587246446,69,42.01,6.2,0
Malumfashi,NG,11.79,7.62,80.4,1587246163,10,80.4,7.43,44
Victoria Point,AU,-27.58,153.3,64.26,1587246394,75,66.99,8.32,35
Chibombo,ZM,-14.66,28.07,63.23,1587246447,59,63.23,4.97,7
Kenai,US,60.55,-151.26,43.2,1587246447,93,46.4,6.93,90
Wagar,SD,16.15,36.2,76.48,1587246448,33,76.48,8.5,89
Cabatuan,PH,10.88,122.49,77.74,1587246448,83,77.74,8.81,2
Bubaque,GW,11.28,-15.83,79.66,1587246448,70,79.66,20.27,100
Ambilobe,MG,-13.2,49.05,73.45,1587246448,82,73.45,5.32,47
San Rafael,AR,-34.62,-68.33,81.54,1587246450,25,81.54,18.19,67
Platteville,US,42.73,-90.48,59.02,1587246450,41,60.8,31.09,1
Mana,GF,5.66,-53.78,81.0,1587246450,82,81.0,8.86,69
Vega de Alatorre,MX,20.03,-96.63,83.68,1587246451,75,83.68,6.42,28
Nemuro,JP,43.32,145.57,40.14,1587246451,79,40.14,9.24,100
Namatanai,PG,-3.67,152.43,81.72,1587246452,77,81.72,4.21,95
